[{"locationID":26828287,"brandID":4,"storeID":7267,"latitude":-37.811015,"longitude":145.006633,"storeName":"Abbotsford","address":"601 Victoria Street","suburb":"Abbotsford","postcode":"3067","state":"VIC","phone":"(03) 8416 1400","distance":1.956,"fax":"","locationFeatures":null,"openingHours":{"mondayOpen":"10:00","mondayClose":"20:00","tuesdayOpen":"10:00","tuesdayClose":"20:00","wednesdayOpen":"10:00","wednesdayClose":"20:00","thursdayOpen":"10:00","thursdayClose":"20:00","fridayOpen":"10:00","fridayClose":"20:00","saturdayOpen":"10:00","saturdayClose":"20:00","sundayOpen":"10:00","sundayClose":"20:00"},"operationalInfo":{"storeManager":"DILLON JANSZ","areaRegion":"V101","areaRegionMgr":"Brenton Fitzsimons","regionZone":"VIC","regionZoneMgr":"Tereaze Hubner"},"openingHoursExceptions":[],"isOpen":true,"openingDate":null,"closingDate":null,"cncEnabled":true,"cncStore":true},{"locationID":26828232,"brandID":4,"storeID":7062,"latitude":-37.840847,"longitude":144.940658,"storeName":"Port Melbourne","address":"120-128 Bay Street","suburb":"Port Melbourne","postcode":"3207","state":"VIC","phone":"(03) 9644 3500","distance":4.683,"fax":"","locationFeatures":null,"openingHours":{"mondayOpen":"09:00","mondayClose":"21:00","tuesdayOpen":"09:00","tuesdayClose":"21:00","wednesdayOpen":"09:00","wednesdayClose":"21:00","thursdayOpen":"09:00","thursdayClose":"21:00","fridayOpen":"09:00","fridayClose":"22:00","saturdayOpen":"09:00","saturdayClose":"22:00","sundayOpen":"10:00","sundayClose":"20:00"},"operationalInfo":{"storeManager":"STEVEN GOJEVIC","areaRegion":"V101","areaRegionMgr":"Brenton Fitzsimons","regionZone":"VIC","regionZoneMgr":"Tereaze Hubner"},"openingHoursExceptions":[],"isOpen":true,"openingDate":null,"closingDate":null,"cncEnabled":true,"cncStore":true},{"locationID":26828263,"brandID":4,"storeID":7231,"latitude":-37.8458,"longitude":145.045598,"storeName":"Tooronga","address":"Corner Toorak Road And Tooronga Road","suburb":"Hawthorn East","postcode":"3123","state":"VIC","phone":"(03) 9828 1100","distance":5.274,"fax":"","locationFeatures":null,"openingHours":{"mondayOpen":"09:00","mondayClose":"21:00","tuesdayOpen":"09:00","tuesdayClose":"21:00","wednesdayOpen":"09:00","wednesdayClose":"21:00","thursdayOpen":"09:00","thursdayClose":"21:00","fridayOpen":"09:00","fridayClose":"21:00","saturdayOpen":"09:00","saturdayClose":"21:00","sundayOpen":"10:00","sundayClose":"20:00"},"operationalInfo":{"storeManager":"MATTHEW COLLIER","areaRegion":"V101","areaRegionMgr":"Brenton Fitzsimons","regionZone":"VIC","regionZoneMgr":"Tereaze Hubner"},"openingHoursExceptions":[],"isOpen":true,"openingDate":null,"closingDate":null,"cncEnabled":true,"cncStore":true},{"locationID":26828261,"brandID":4,"storeID":7228,"latitude":-37.781569,"longitude":144.914835,"storeName":"Flemington","address":"320 Epsom Road","suburb":"Ascot Vale","postcode":"3032","state":"VIC","phone":"(03) 9371 4000","distance":8.003,"fax":"","locationFeatures":null,"openingHours":{"mondayOpen":"09:00","mondayClose":"20:00","tuesdayOpen":"09:00","tuesdayClose":"20:00","wednesdayOpen":"09:00","wednesdayClose":"20:00","thursdayOpen":"09:00","thursdayClose":"21:00","fridayOpen":"09:00","fridayClose":"21:00","saturdayOpen":"09:00","saturdayClose":"21:00","sundayOpen":"10:00","sundayClose":"19:00"},"operationalInfo":{"storeManager":"","areaRegion":"V101","areaRegionMgr":"Brenton Fitzsimons","regionZone":"VIC","regionZoneMgr":"Tereaze Hubner"},"openingHoursExceptions":[],"isOpen":true,"openingDate":null,"closingDate":null,"cncEnabled":true,"cncStore":true},{"locationID":26828227,"brandID":4,"storeID":7051,"latitude":-37.813259,"longitude":145.085311,"storeName":"Balwyn","address":"445 Whitehorse Road","suburb":"Balwyn","postcode":"3103","state":"VIC","phone":"(03) 8809 3900","distance":8.142,"fax":"","locationFeatures":null,"openingHours":{"mondayOpen":"09:00","mondayClose":"21:00","tuesdayOpen":"09:00","tuesdayClose":"21:00","wednesdayOpen":"09:00","wednesdayClose":"21:00","thursdayOpen":"09:00","thursdayClose":"21:00","fridayOpen":"09:00","fridayClose":"21:00","saturdayOpen":"09:00","saturdayClose":"21:00","sundayOpen":"10:00","sundayClose":"20:00"},"operationalInfo":{"storeManager":"STEVE CONNORS","areaRegion":"V201","areaRegionMgr":"Jared Moore","regionZone":"VIC","regionZoneMgr":"Tereaze Hubner"},"openingHoursExceptions":[],"isOpen":true,"openingDate":null,"closingDate":null,"cncEnabled":true,"cncStore":true},{"locationID":26828231,"brandID":4,"storeID":7059,"latitude":-37.863804,"longitude":145.092552,"storeName":"Ashburton","address":"368-374 Warrigal Road","suburb":"Ashburton","postcode":"3147","state":"VIC","phone":"(03) 9809 8500","distance":9.751,"fax":"","locationFeatures":null,"openingHours":{"mondayOpen":"09:00","mondayClose":"21:00","tuesdayOpen":"09:00","tuesdayClose":"21:00","wednesdayOpen":"09:00","wednesdayClose":"21:00","thursdayOpen":"09:00","thursdayClose":"21:00","fridayOpen":"09:00","fridayClose":"21:00","saturdayOpen":"09:00","saturdayClose":"21:00","sundayOpen":"10:00","sundayClose":"20:00"},"operationalInfo":{"storeManager":"TYLER LANE","areaRegion":"V201","areaRegionMgr":"Jared Moore","regionZone":"VIC","regionZoneMgr":"Tereaze Hubner"},"openingHoursExceptions":[],"isOpen":true,"openingDate":null,"closingDate":null,"cncEnabled":true,"cncStore":true},{"locationID":26828314,"brandID":4,"storeID":7764,"latitude":-37.731973,"longitude":144.939044,"storeName":"Pascoe Vale","address":"335-337 Gaffney Street","suburb":"Pascoe Vale","postcode":"3044","state":"VIC","phone":"(03) 9240 1600","distance":11.123,"fax":"","locationFeatures":null,"openingHours":{"mondayOpen":"10:00","mondayClose":"20:00","tuesdayOpen":"10:00","tuesdayClose":"21:00","wednesdayOpen":"09:00","wednesdayClose":"21:00","thursdayOpen":"09:00","thursdayClose":"21:00","fridayOpen":"09:00","fridayClose":"21:00","saturdayOpen":"09:00","saturdayClose":"21:00","sundayOpen":"10:00","sundayClose":"19:00"},"operationalInfo":{"storeManager":"AARON SKOGLUND","areaRegion":"V101","areaRegionMgr":"Brenton Fitzsimons","regionZone":"VIC","regionZoneMgr":"Tereaze Hubner"},"openingHoursExceptions":[],"isOpen":true,"openingDate":null,"closingDate":null,"cncEnabled":true,"cncStore":true},{"locationID":26828308,"brandID":4,"storeID":7293,"latitude":-37.918273,"longitude":145.041488,"storeName":"Bentleigh","address":"177 Jasper Road","suburb":"Bentleigh","postcode":"3204","state":"VIC","phone":"(03) 9593 4100","distance":11.363,"fax":"","locationFeatures":null,"openingHours":{"mondayOpen":"09:00","mondayClose":"20:00","tuesdayOpen":"09:00","tuesdayClose":"20:00","wednesdayOpen":"09:00","wednesdayClose":"20:00","thursdayOpen":"09:00","thursdayClose":"21:00","fridayOpen":"09:00","fridayClose":"21:00","saturdayOpen":"09:00","saturdayClose":"21:00","sundayOpen":"10:00","sundayClose":"20:00"},"operationalInfo":{"storeManager":"MATTHEW WHITE","areaRegion":"V201","areaRegionMgr":"Jared Moore","regionZone":"VIC","regionZoneMgr":"Tereaze Hubner"},"openingHoursExceptions":[],"isOpen":true,"openingDate":null,"closingDate":null,"cncEnabled":true,"cncStore":true},{"locationID":26828283,"brandID":4,"storeID":7259,"latitude":-37.853214,"longitude":145.150643,"storeName":"Burwood East","address":"172-210 Burwood  Highway","suburb":"Burwood East","postcode":"3151","state":"VIC","phone":"(03) 9210 5200","distance":14.018,"fax":"","locationFeatures":null,"openingHours":{"mondayOpen":"09:00","mondayClose":"20:00","tuesdayOpen":"09:00","tuesdayClose":"20:00","wednesdayOpen":"09:00","wednesdayClose":"20:00","thursdayOpen":"09:00","thursdayClose":"21:00","fridayOpen":"09:00","fridayClose":"21:00","saturdayOpen":"09:00","saturdayClose":"21:00","sundayOpen":"10:00","sundayClose":"19:00"},"operationalInfo":{"storeManager":"GEORGE GAITANIS","areaRegion":"V201","areaRegionMgr":"Jared Moore","regionZone":"VIC","regionZoneMgr":"Tereaze Hubner"},"openingHoursExceptions":[],"isOpen":true,"openingDate":null,"closingDate":null,"cncEnabled":true,"cncStore":true},{"locationID":26828228,"brandID":4,"storeID":7053,"latitude":-37.815637,"longitude":145.221039,"storeName":"Ringwood","address":"Corner Maroondah Highway And New Street","suburb":"Ringwood","postcode":"3134","state":"VIC","phone":"(03) 9871 6700","distance":19.656,"fax":"","locationFeatures":null,"openingHours":{"mondayOpen":"09:00","mondayClose":"21:00","tuesdayOpen":"09:00","tuesdayClose":"21:00","wednesdayOpen":"09:00","wednesdayClose":"21:00","thursdayOpen":"09:00","thursdayClose":"21:00","fridayOpen":"09:00","fridayClose":"21:00","saturdayOpen":"09:00","saturdayClose":"21:00","sundayOpen":"10:00","sundayClose":"19:00"},"operationalInfo":{"storeManager":"NARELLE CURRY","areaRegion":"V201","areaRegionMgr":"Jared Moore","regionZone":"VIC","regionZoneMgr":"Tereaze Hubner"},"openingHoursExceptions":[],"isOpen":true,"openingDate":null,"closingDate":null,"cncEnabled":true,"cncStore":true}]