[{"locationID":26827755,"brandID":3,"storeID":3861,"latitude":-37.82543,"longitude":144.995799,"storeName":"Richmond (swan Street)","address":"140-160 Swan Street","suburb":"Richmond","postcode":"3121","state":"VIC","phone":"(03) 9240 3080","distance":0.462,"fax":"","locationFeatures":null,"openingHours":{"mondayOpen":"09:00","mondayClose":"22:00","tuesdayOpen":"09:00","tuesdayClose":"22:00","wednesdayOpen":"09:00","wednesdayClose":"22:00","thursdayOpen":"09:00","thursdayClose":"22:00","fridayOpen":"09:00","fridayClose":"23:00","saturdayOpen":"09:00","saturdayClose":"23:00","sundayOpen":"10:00","sundayClose":"21:00"},"operationalInfo":{"storeManager":"ZARA TANIRAU","areaRegion":"V203","areaRegionMgr":"Myles Brown (caretaking)","regionZone":"VIC","regionZoneMgr":"Tereaze Hubner"},"openingHoursExceptions":[],"isOpen":true,"openingDate":null,"closingDate":null,"cncEnabled":true,"cncStore":true},{"locationID":26827488,"brandID":3,"storeID":2449,"latitude":-37.813721,"longitude":145.01141,"storeName":"Victoria Gardens","address":"Corner Victoria Street And Burnley Street","suburb":"Richmond","postcode":"3121","state":"VIC","phone":"(03) 9429 2244","distance":2.08,"fax":"","locationFeatures":null,"openingHours":{"mondayOpen":"09:00","mondayClose":"21:00","tuesdayOpen":"09:00","tuesdayClose":"21:00","wednesdayOpen":"09:00","wednesdayClose":"21:00","thursdayOpen":"09:00","thursdayClose":"22:00","fridayOpen":"09:00","fridayClose":"22:00","saturdayOpen":"09:00","saturdayClose":"22:00","sundayOpen":"10:00","sundayClose":"21:00"},"operationalInfo":{"storeManager":"MARK ADAMIS","areaRegion":"V205","areaRegionMgr":"Lee Weise","regionZone":"VIC","regionZoneMgr":"Tereaze Hubner"},"openingHoursExceptions":[],"isOpen":true,"openingDate":null,"closingDate":null,"cncEnabled":true,"cncStore":true},{"locationID":26828134,"brandID":3,"storeID":3845,"latitude":-37.817469,"longitude":144.964781,"storeName":"Elizabeth St","address":"26 Elizabeth Street","suburb":"Melbourne","postcode":"3000","state":"VIC","phone":"(03) 9652 9280","distance":2.331,"fax":"","locationFeatures":null,"openingHours":{"mondayOpen":"09:00","mondayClose":"23:00","tuesdayOpen":"09:00","tuesdayClose":"23:00","wednesdayOpen":"09:00","wednesdayClose":"23:00","thursdayOpen":"09:00","thursdayClose":"23:00","fridayOpen":"09:00","fridayClose":"23:00","saturdayOpen":"09:00","saturdayClose":"23:00","sundayOpen":"10:00","sundayClose":"22:00"},"operationalInfo":{"storeManager":"KEANE GIRVAN","areaRegion":"V203","areaRegionMgr":"Myles Brown (caretaking)","regionZone":"VIC","regionZoneMgr":"Tereaze Hubner"},"openingHoursExceptions":[],"isOpen":true,"openingDate":null,"closingDate":null,"cncEnabled":true,"cncStore":true},{"locationID":26827811,"brandID":3,"storeID":2984,"latitude":-37.803481,"longitude":144.983869,"storeName":"Collingwood","address":"150 Smith Street","suburb":"Collingwood","postcode":"3066","state":"VIC","phone":"(03) 9230 1680","distance":2.333,"fax":"","locationFeatures":null,"openingHours":{"mondayOpen":"09:00","mondayClose":"21:00","tuesdayOpen":"09:00","tuesdayClose":"21:00","wednesdayOpen":"09:00","wednesdayClose":"21:00","thursdayOpen":"09:00","thursdayClose":"21:00","fridayOpen":"09:00","fridayClose":"23:00","saturdayOpen":"09:00","saturdayClose":"23:00","sundayOpen":"10:00","sundayClose":"21:00"},"operationalInfo":{"storeManager":"MATTHEW YOUNGER","areaRegion":"V203","areaRegionMgr":"Myles Brown (caretaking)","regionZone":"VIC","regionZoneMgr":"Tereaze Hubner"},"openingHoursExceptions":[],"isOpen":true,"openingDate":null,"closingDate":null,"cncEnabled":true,"cncStore":true},{"locationID":26827564,"brandID":3,"storeID":2490,"latitude":-37.847987,"longitude":144.993709,"storeName":"Prahran","address":"303 Chapel St","suburb":"Prahran","postcode":"3181","state":"VIC","phone":"(03) 9055 7680","distance":2.704,"fax":"","locationFeatures":null,"openingHours":{"mondayOpen":"10:00","mondayClose":"21:00","tuesdayOpen":"10:00","tuesdayClose":"21:00","wednesdayOpen":"10:00","wednesdayClose":"21:00","thursdayOpen":"10:00","thursdayClose":"23:00","fridayOpen":"09:00","fridayClose":"23:00","saturdayOpen":"09:00","saturdayClose":"23:00","sundayOpen":"10:00","sundayClose":"22:00"},"operationalInfo":{"storeManager":"DHAVAL GADHVI","areaRegion":"V203","areaRegionMgr":"Myles Brown (caretaking)","regionZone":"VIC","regionZoneMgr":"Tereaze Hubner"},"openingHoursExceptions":[],"isOpen":true,"openingDate":null,"closingDate":null,"cncEnabled":true,"cncStore":true},{"locationID":26827589,"brandID":3,"storeID":3304,"latitude":-37.832018,"longitude":144.96056,"storeName":"South Melbourne","address":"265 Clarendon Street","suburb":"South Melbourne","postcode":"3205","state":"VIC","phone":"(03) 9690 5425","distance":2.741,"fax":"","locationFeatures":null,"openingHours":{"mondayOpen":"10:00","mondayClose":"21:00","tuesdayOpen":"10:00","tuesdayClose":"21:00","wednesdayOpen":"10:00","wednesdayClose":"21:00","thursdayOpen":"10:00","thursdayClose":"21:00","fridayOpen":"10:00","fridayClose":"22:00","saturdayOpen":"09:00","saturdayClose":"22:00","sundayOpen":"10:00","sundayClose":"21:00"},"operationalInfo":{"storeManager":"RYAN HILLSTEAD","areaRegion":"V202","areaRegionMgr":"Jack Irons (caretaking)","regionZone":"VIC","regionZoneMgr":"Tereaze Hubner"},"openingHoursExceptions":[],"isOpen":true,"openingDate":null,"closingDate":null,"cncEnabled":true,"cncStore":true},{"locationID":26828008,"brandID":3,"storeID":3818,"latitude":-37.810692,"longitude":144.962492,"storeName":"Melbourne Central Express","address":"211 Latrobe Street","suburb":"Melbourne","postcode":"3000","state":"VIC","phone":"(03) 9663 2383","distance":2.822,"fax":"","locationFeatures":null,"openingHours":{"mondayOpen":"10:00","mondayClose":"22:00","tuesdayOpen":"10:00","tuesdayClose":"22:00","wednesdayOpen":"10:00","wednesdayClose":"22:00","thursdayOpen":"10:00","thursdayClose":"23:00","fridayOpen":"10:00","fridayClose":"23:00","saturdayOpen":"10:00","saturdayClose":"23:00","sundayOpen":"10:00","sundayClose":"22:00"},"operationalInfo":{"storeManager":"MATTHEW SMITH","areaRegion":"V203","areaRegionMgr":"Myles Brown (caretaking)","regionZone":"VIC","regionZoneMgr":"Tereaze Hubner"},"openingHoursExceptions":[],"isOpen":true,"openingDate":null,"closingDate":null,"cncEnabled":true,"cncStore":true},{"locationID":26827559,"brandID":3,"storeID":2485,"latitude":-37.798667,"longitude":144.978547,"storeName":"Fitzroy","address":"282 Brunswick Street","suburb":"Fitzroy","postcode":"3065","state":"VIC","phone":"(03) 9415 6604","distance":2.982,"fax":"","locationFeatures":null,"openingHours":{"mondayOpen":"09:00","mondayClose":"21:00","tuesdayOpen":"09:00","tuesdayClose":"21:00","wednesdayOpen":"09:00","wednesdayClose":"21:00","thursdayOpen":"09:00","thursdayClose":"21:00","fridayOpen":"09:00","fridayClose":"23:00","saturdayOpen":"09:00","saturdayClose":"23:00","sundayOpen":"10:00","sundayClose":"21:00"},"operationalInfo":{"storeManager":"JULIET CROSSMAN","areaRegion":"V203","areaRegionMgr":"Myles Brown (caretaking)","regionZone":"VIC","regionZoneMgr":"Tereaze Hubner"},"openingHoursExceptions":[],"isOpen":true,"openingDate":null,"closingDate":null,"cncEnabled":true,"cncStore":true},{"locationID":26827570,"brandID":3,"storeID":2877,"latitude":-37.81515,"longitude":144.952316,"storeName":"Spencer St Cbd","address":"201 Spencer St","suburb":"Melbourne","postcode":"3008","state":"VIC","phone":"(03) 7007 5380","distance":3.423,"fax":"","locationFeatures":null,"openingHours":{"mondayOpen":"09:00","mondayClose":"22:00","tuesdayOpen":"09:00","tuesdayClose":"22:00","wednesdayOpen":"09:00","wednesdayClose":"22:00","thursdayOpen":"09:00","thursdayClose":"23:00","fridayOpen":"09:00","fridayClose":"23:00","saturdayOpen":"09:00","saturdayClose":"23:00","sundayOpen":"10:00","sundayClose":"22:00"},"operationalInfo":{"storeManager":"TAMMY PARTRIDGE","areaRegion":"V203","areaRegionMgr":"Myles Brown (caretaking)","regionZone":"VIC","regionZoneMgr":"Tereaze Hubner"},"openingHoursExceptions":[],"isOpen":true,"openingDate":null,"closingDate":null,"cncEnabled":true,"cncStore":true},{"locationID":26827594,"brandID":3,"storeID":3313,"latitude":-37.829501,"longitude":145.056205,"storeName":"Camberwell","address":"793 Burke Road","suburb":"Camberwell","postcode":"3124","state":"VIC","phone":"(03) 9813 0511","distance":5.612,"fax":"","locationFeatures":null,"openingHours":{"mondayOpen":"10:00","mondayClose":"20:00","tuesdayOpen":"10:00","tuesdayClose":"20:00","wednesdayOpen":"10:00","wednesdayClose":"20:00","thursdayOpen":"10:00","thursdayClose":"20:00","fridayOpen":"10:00","fridayClose":"21:00","saturdayOpen":"10:00","saturdayClose":"21:00","sundayOpen":"11:00","sundayClose":"19:00"},"operationalInfo":{"storeManager":"TIMOTHY KNUCKEY","areaRegion":"V205","areaRegionMgr":"Lee Weise","regionZone":"VIC","regionZoneMgr":"Tereaze Hubner"},"openingHoursExceptions":[],"isOpen":true,"openingDate":null,"closingDate":null,"cncEnabled":true,"cncStore":true},{"locationID":26827687,"brandID":3,"storeID":2936,"latitude":-37.77611,"longitude":145.018871,"storeName":"Fairfield (station Street)","address":"149-153 Station Street","suburb":"Fairfield","postcode":"3078","state":"VIC","phone":"(03) 9489 1068","distance":5.814,"fax":"","locationFeatures":null,"openingHours":{"mondayOpen":"11:00","mondayClose":"21:00","tuesdayOpen":"11:00","tuesdayClose":"21:00","wednesdayOpen":"11:00","wednesdayClose":"21:00","thursdayOpen":"11:00","thursdayClose":"21:00","fridayOpen":"10:00","fridayClose":"21:00","saturdayOpen":"10:00","saturdayClose":"21:00","sundayOpen":"10:00","sundayClose":"19:00"},"operationalInfo":{"storeManager":"TEGAN HUYBERS","areaRegion":"V104","areaRegionMgr":"Perry Murphy","regionZone":"VIC","regionZoneMgr":"Tereaze Hubner"},"openingHoursExceptions":[],"isOpen":true,"openingDate":null,"closingDate":null,"cncEnabled":true,"cncStore":true},{"locationID":26827753,"brandID":3,"storeID":3859,"latitude":-37.775519,"longitude":144.962345,"storeName":"Brunswick (barkly Square)","address":"90-106 Sydney Road","suburb":"Brunswick","postcode":"3056","state":"VIC","phone":"(03) 9084 9204","distance":5.89,"fax":"","locationFeatures":null,"openingHours":{"mondayOpen":"10:00","mondayClose":"22:00","tuesdayOpen":"10:00","tuesdayClose":"22:00","wednesdayOpen":"10:00","wednesdayClose":"22:00","thursdayOpen":"10:00","thursdayClose":"22:00","fridayOpen":"10:00","fridayClose":"23:00","saturdayOpen":"09:00","saturdayClose":"23:00","sundayOpen":"10:00","sundayClose":"21:00"},"operationalInfo":{"storeManager":"TIMOTHY HARRISON","areaRegion":"V104","areaRegionMgr":"Perry Murphy","regionZone":"VIC","regionZoneMgr":"Tereaze Hubner"},"openingHoursExceptions":[],"isOpen":true,"openingDate":null,"closingDate":null,"cncEnabled":true,"cncStore":true},{"locationID":26828123,"brandID":3,"storeID":3827,"latitude":-37.768143,"longitude":145.001723,"storeName":"Northcote","address":"Corner Separation Street And High Street","suburb":"Northcote","postcode":"3070","state":"VIC","phone":"(03) 9085 1280","distance":6.255,"fax":"","locationFeatures":null,"openingHours":{"mondayOpen":"09:00","mondayClose":"22:00","tuesdayOpen":"09:00","tuesdayClose":"22:00","wednesdayOpen":"09:00","wednesdayClose":"22:00","thursdayOpen":"09:00","thursdayClose":"22:00","fridayOpen":"09:00","fridayClose":"23:00","saturdayOpen":"09:00","saturdayClose":"23:00","sundayOpen":"10:00","sundayClose":"22:00"},"operationalInfo":{"storeManager":"MITCHELL BOOTH","areaRegion":"V104","areaRegionMgr":"Perry Murphy","regionZone":"VIC","regionZoneMgr":"Tereaze Hubner"},"openingHoursExceptions":[],"isOpen":true,"openingDate":null,"closingDate":null,"cncEnabled":true,"cncStore":true},{"locationID":26828003,"brandID":3,"storeID":3809,"latitude":-37.772562,"longitude":144.94896,"storeName":"Brunswick (union Square)","address":"190 Union Street","suburb":"Brunswick West","postcode":"3055","state":"VIC","phone":"(03) 9075 1306","distance":6.722,"fax":"","locationFeatures":null,"openingHours":{"mondayOpen":"10:00","mondayClose":"22:00","tuesdayOpen":"10:00","tuesdayClose":"22:00","wednesdayOpen":"10:00","wednesdayClose":"22:00","thursdayOpen":"10:00","thursdayClose":"22:00","fridayOpen":"10:00","fridayClose":"22:00","saturdayOpen":"09:00","saturdayClose":"22:00","sundayOpen":"10:00","sundayClose":"22:00"},"operationalInfo":{"storeManager":"LAKHWINDER SINGH","areaRegion":"V104","areaRegionMgr":"Perry Murphy","regionZone":"VIC","regionZoneMgr":"Tereaze Hubner"},"openingHoursExceptions":[],"isOpen":true,"openingDate":null,"closingDate":null,"cncEnabled":true,"cncStore":true},{"locationID":26827495,"brandID":3,"storeID":2459,"latitude":-37.88479,"longitude":145.00697,"storeName":"Elsternwick","address":"441-443 Glenhuntley Road","suburb":"Elsternwick","postcode":"3185","state":"VIC","phone":"(03) 9084 7680","distance":6.924,"fax":"","locationFeatures":null,"openingHours":{"mondayOpen":"09:00","mondayClose":"22:00","tuesdayOpen":"09:00","tuesdayClose":"22:00","wednesdayOpen":"09:00","wednesdayClose":"22:00","thursdayOpen":"09:00","thursdayClose":"22:00","fridayOpen":"09:00","fridayClose":"23:00","saturdayOpen":"09:00","saturdayClose":"23:00","sundayOpen":"10:00","sundayClose":"21:00"},"operationalInfo":{"storeManager":"BRYLIE MACHIN","areaRegion":"V203","areaRegionMgr":"Myles Brown (caretaking)","regionZone":"VIC","regionZoneMgr":"Tereaze Hubner"},"openingHoursExceptions":[],"isOpen":true,"openingDate":null,"closingDate":null,"cncEnabled":true,"cncStore":true},{"locationID":26827800,"brandID":3,"storeID":2969,"latitude":-37.793219,"longitude":145.064411,"storeName":"Balwyn North","address":"1-9 Doncaster Road","suburb":"Balwyn North","postcode":"3104","state":"VIC","phone":"(03) 9859 7310","distance":7.136,"fax":"","locationFeatures":null,"openingHours":{"mondayOpen":"10:00","mondayClose":"21:00","tuesdayOpen":"10:00","tuesdayClose":"21:00","wednesdayOpen":"10:00","wednesdayClose":"21:00","thursdayOpen":"09:00","thursdayClose":"21:00","fridayOpen":"09:00","fridayClose":"22:00","saturdayOpen":"09:00","saturdayClose":"22:00","sundayOpen":"10:00","sundayClose":"21:00"},"operationalInfo":{"storeManager":"MARK CASAS ACEVEDO","areaRegion":"V205","areaRegionMgr":"Lee Weise","regionZone":"VIC","regionZoneMgr":"Tereaze Hubner"},"openingHoursExceptions":[],"isOpen":true,"openingDate":null,"closingDate":null,"cncEnabled":true,"cncStore":true},{"locationID":26828127,"brandID":3,"storeID":3833,"latitude":-37.876149,"longitude":145.04223,"storeName":"Caulfield","address":"Corner Dandenong Road And Derby Road","suburb":"Caulfield","postcode":"3162","state":"VIC","phone":"(03) 9571 6730","distance":7.29,"fax":"","locationFeatures":null,"openingHours":{"mondayOpen":"10:00","mondayClose":"20:00","tuesdayOpen":"10:00","tuesdayClose":"20:00","wednesdayOpen":"10:00","wednesdayClose":"20:00","thursdayOpen":"10:00","thursdayClose":"21:00","fridayOpen":"09:00","fridayClose":"22:00","saturdayOpen":"10:00","saturdayClose":"22:00","sundayOpen":"11:00","sundayClose":"19:00"},"operationalInfo":{"storeManager":"NEHA SHARMA","areaRegion":"V203","areaRegionMgr":"Myles Brown (caretaking)","regionZone":"VIC","regionZoneMgr":"Tereaze Hubner"},"openingHoursExceptions":[],"isOpen":true,"openingDate":null,"closingDate":null,"cncEnabled":true,"cncStore":true},{"locationID":26827558,"brandID":3,"storeID":2483,"latitude":-37.833777,"longitude":145.077547,"storeName":"Middle Camberwell","address":"727-729 Riversdale Road","suburb":"Camberwell","postcode":"3124","state":"VIC","phone":"(03) 9058 9680","distance":7.479,"fax":"","locationFeatures":null,"openingHours":{"mondayOpen":"09:00","mondayClose":"21:00","tuesdayOpen":"09:00","tuesdayClose":"21:00","wednesdayOpen":"09:00","wednesdayClose":"21:00","thursdayOpen":"09:00","thursdayClose":"22:00","fridayOpen":"09:00","fridayClose":"22:00","saturdayOpen":"09:00","saturdayClose":"22:00","sundayOpen":"10:00","sundayClose":"21:00"},"operationalInfo":{"storeManager":"MACLEOD KAYNE","areaRegion":"V205","areaRegionMgr":"Lee Weise","regionZone":"VIC","regionZoneMgr":"Tereaze Hubner"},"openingHoursExceptions":[],"isOpen":true,"openingDate":null,"closingDate":null,"cncEnabled":true,"cncStore":true},{"locationID":26828084,"brandID":3,"storeID":2420,"latitude":-37.768577,"longitude":145.041875,"storeName":"Ivanhoe","address":"4 Livingstone Street","suburb":"Ivanhoe","postcode":"3079","state":"VIC","phone":"(03) 9490 2380","distance":7.524,"fax":"","locationFeatures":null,"openingHours":{"mondayOpen":"09:00","mondayClose":"21:00","tuesdayOpen":"09:00","tuesdayClose":"21:00","wednesdayOpen":"09:00","wednesdayClose":"22:00","thursdayOpen":"09:00","thursdayClose":"22:00","fridayOpen":"09:00","fridayClose":"22:00","saturdayOpen":"09:00","saturdayClose":"22:00","sundayOpen":"10:00","sundayClose":"21:00"},"operationalInfo":{"storeManager":"MICHELLE EDWARDS","areaRegion":"V104","areaRegionMgr":"Perry Murphy","regionZone":"VIC","regionZoneMgr":"Tereaze Hubner"},"openingHoursExceptions":[],"isOpen":true,"openingDate":null,"closingDate":null,"cncEnabled":true,"cncStore":true},{"locationID":26828203,"brandID":3,"storeID":3095,"latitude":-37.780421,"longitude":144.913907,"storeName":"Flemington","address":"320-380 Epsom Road","suburb":"Flemington","postcode":"3031","state":"VIC","phone":"(03) 8371 5080","distance":8.142,"fax":"","locationFeatures":null,"openingHours":{"mondayOpen":"10:00","mondayClose":"21:00","tuesdayOpen":"10:00","tuesdayClose":"21:00","wednesdayOpen":"09:00","wednesdayClose":"21:00","thursdayOpen":"09:00","thursdayClose":"21:00","fridayOpen":"09:00","fridayClose":"22:00","saturdayOpen":"09:00","saturdayClose":"22:00","sundayOpen":"10:00","sundayClose":"21:00"},"operationalInfo":{"storeManager":"LARA DEBATTISTA","areaRegion":"V101","areaRegionMgr":"Brenton Fitzsimons","regionZone":"VIC","regionZoneMgr":"Tereaze Hubner"},"openingHoursExceptions":[],"isOpen":true,"openingDate":null,"closingDate":null,"cncEnabled":true,"cncStore":true},{"locationID":26827807,"brandID":3,"storeID":2977,"latitude":-37.80137,"longitude":144.898568,"storeName":"Footscray","address":"18 Albert Street","suburb":"Footscray","postcode":"3011","state":"VIC","phone":"(03) 9680 1380","distance":8.255,"fax":"","locationFeatures":null,"openingHours":{"mondayOpen":"09:00","mondayClose":"22:00","tuesdayOpen":"09:00","tuesdayClose":"22:00","wednesdayOpen":"09:00","wednesdayClose":"22:00","thursdayOpen":"09:00","thursdayClose":"22:00","fridayOpen":"09:00","fridayClose":"23:00","saturdayOpen":"09:00","saturdayClose":"23:00","sundayOpen":"10:00","sundayClose":"22:00"},"operationalInfo":{"storeManager":"FLAVIO MOLINARO","areaRegion":"V103","areaRegionMgr":"Matthew Maguire (Secondment)","regionZone":"VIC","regionZoneMgr":"Tereaze Hubner"},"openingHoursExceptions":[],"isOpen":true,"openingDate":null,"closingDate":null,"cncEnabled":true,"cncStore":true},{"locationID":26828131,"brandID":3,"storeID":3842,"latitude":-37.857292,"longitude":144.897507,"storeName":"Williamstown","address":"29 Douglas Parade","suburb":"Williamstown","postcode":"3016","state":"VIC","phone":"(03) 8468 7780","distance":8.791,"fax":"","locationFeatures":null,"openingHours":{"mondayOpen":"09:00","mondayClose":"22:00","tuesdayOpen":"09:00","tuesdayClose":"22:00","wednesdayOpen":"09:00","wednesdayClose":"22:00","thursdayOpen":"09:00","thursdayClose":"22:00","fridayOpen":"09:00","fridayClose":"22:00","saturdayOpen":"09:00","saturdayClose":"22:00","sundayOpen":"10:00","sundayClose":"22:00"},"operationalInfo":{"storeManager":"DAVID MITCHELL","areaRegion":"V202","areaRegionMgr":"Jack Irons (caretaking)","regionZone":"VIC","regionZoneMgr":"Tereaze Hubner"},"openingHoursExceptions":[],"isOpen":true,"openingDate":null,"closingDate":null,"cncEnabled":true,"cncStore":true},{"locationID":26827836,"brandID":3,"storeID":3757,"latitude":-37.764627,"longitude":144.92236,"storeName":"Moonee Ponds","address":"Corner Eddy Street And Homer Street","suburb":"Moonee Ponds","postcode":"3039","state":"VIC","phone":"(03) 9372 8704","distance":8.796,"fax":"","locationFeatures":null,"openingHours":{"mondayOpen":"09:00","mondayClose":"20:00","tuesdayOpen":"09:00","tuesdayClose":"20:00","wednesdayOpen":"09:00","wednesdayClose":"20:00","thursdayOpen":"09:00","thursdayClose":"21:00","fridayOpen":"09:00","fridayClose":"22:00","saturdayOpen":"09:00","saturdayClose":"22:00","sundayOpen":"10:00","sundayClose":"20:00"},"operationalInfo":{"storeManager":"NED BATINOVIC","areaRegion":"V101","areaRegionMgr":"Brenton Fitzsimons","regionZone":"VIC","regionZoneMgr":"Tereaze Hubner"},"openingHoursExceptions":[],"isOpen":true,"openingDate":null,"closingDate":null,"cncEnabled":true,"cncStore":true},{"locationID":26827852,"brandID":3,"storeID":3789,"latitude":-37.905911,"longitude":145.005417,"storeName":"North Brighton","address":"Corner Bay Street And Male Street","suburb":"Brighton North","postcode":"3186","state":"VIC","phone":"(03) 9591 6780","distance":9.219,"fax":"","locationFeatures":null,"openingHours":{"mondayOpen":"10:00","mondayClose":"21:00","tuesdayOpen":"10:00","tuesdayClose":"21:00","wednesdayOpen":"10:00","wednesdayClose":"21:00","thursdayOpen":"10:00","thursdayClose":"22:00","fridayOpen":"10:00","fridayClose":"22:00","saturdayOpen":"09:00","saturdayClose":"22:00","sundayOpen":"10:00","sundayClose":"21:00"},"operationalInfo":{"storeManager":"JACOB BODNA","areaRegion":"V202","areaRegionMgr":"Jack Irons (caretaking)","regionZone":"VIC","regionZoneMgr":"Tereaze Hubner"},"openingHoursExceptions":[],"isOpen":true,"openingDate":null,"closingDate":null,"cncEnabled":true,"cncStore":true},{"locationID":26827771,"brandID":3,"storeID":3892,"latitude":-37.742524,"longitude":144.966043,"storeName":"Coburg","address":"451 Sydney Road","suburb":"Coburg","postcode":"3058","state":"VIC","phone":"(03) 9354 4516","distance":9.279,"fax":"","locationFeatures":null,"openingHours":{"mondayOpen":"10:00","mondayClose":"20:00","tuesdayOpen":"10:00","tuesdayClose":"20:00","wednesdayOpen":"10:00","wednesdayClose":"20:00","thursdayOpen":"10:00","thursdayClose":"20:00","fridayOpen":"10:00","fridayClose":"21:00","saturdayOpen":"10:00","saturdayClose":"21:00","sundayOpen":"11:00","sundayClose":"19:00"},"operationalInfo":{"storeManager":"JERMAINE SINGLETARY","areaRegion":"V101","areaRegionMgr":"Brenton Fitzsimons","regionZone":"VIC","regionZoneMgr":"Tereaze Hubner"},"openingHoursExceptions":[],"isOpen":true,"openingDate":null,"closingDate":null,"cncEnabled":true,"cncStore":true},{"locationID":26827768,"brandID":3,"storeID":3886,"latitude":-37.817146,"longitude":144.881607,"storeName":"Yarraville","address":"Corner High Street And Williamstown Road","suburb":"Yarraville","postcode":"3013","state":"VIC","phone":"(03) 9362 4380","distance":9.346,"fax":"","locationFeatures":null,"openingHours":{"mondayOpen":"09:00","mondayClose":"21:00","tuesdayOpen":"09:00","tuesdayClose":"21:00","wednesdayOpen":"09:00","wednesdayClose":"21:00","thursdayOpen":"09:00","thursdayClose":"22:00","fridayOpen":"09:00","fridayClose":"22:00","saturdayOpen":"09:00","saturdayClose":"22:00","sundayOpen":"10:00","sundayClose":"21:00"},"operationalInfo":{"storeManager":"KERRI ALLEN","areaRegion":"V202","areaRegionMgr":"Jack Irons (caretaking)","regionZone":"VIC","regionZoneMgr":"Tereaze Hubner"},"openingHoursExceptions":[],"isOpen":true,"openingDate":null,"closingDate":null,"cncEnabled":true,"cncStore":true},{"locationID":26827523,"brandID":3,"storeID":3274,"latitude":-37.913674,"longitude":144.993737,"storeName":"Brighton (vic)","address":"26-34 Church Street","suburb":"Brighton","postcode":"3186","state":"VIC","phone":"(03) 9553 8416","distance":10.001,"fax":"","locationFeatures":null,"openingHours":{"mondayOpen":"10:00","mondayClose":"20:00","tuesdayOpen":"10:00","tuesdayClose":"20:00","wednesdayOpen":"10:00","wednesdayClose":"20:00","thursdayOpen":"10:00","thursdayClose":"20:00","fridayOpen":"10:00","fridayClose":"21:00","saturdayOpen":"10:00","saturdayClose":"21:00","sundayOpen":"10:00","sundayClose":"19:00"},"operationalInfo":{"storeManager":"PAUL DOWIE","areaRegion":"V202","areaRegionMgr":"Jack Irons (caretaking)","regionZone":"VIC","regionZoneMgr":"Tereaze Hubner"},"openingHoursExceptions":[],"isOpen":true,"openingDate":null,"closingDate":null,"cncEnabled":true,"cncStore":true},{"locationID":26827854,"brandID":3,"storeID":3791,"latitude":-37.75565,"longitude":145.069194,"storeName":"Warringal Mall","address":"Corner Rosanna Road And Burgundy Street","suburb":"Heidelberg","postcode":"3084","state":"VIC","phone":"(03) 9084 9237","distance":10.102,"fax":"","locationFeatures":null,"openingHours":{"mondayOpen":"09:00","mondayClose":"20:00","tuesdayOpen":"09:00","tuesdayClose":"20:00","wednesdayOpen":"09:00","wednesdayClose":"20:00","thursdayOpen":"09:00","thursdayClose":"20:00","fridayOpen":"09:00","fridayClose":"21:00","saturdayOpen":"09:00","saturdayClose":"21:00","sundayOpen":"10:00","sundayClose":"19:00"},"operationalInfo":{"storeManager":"HANNAH ZEIDAN","areaRegion":"V104","areaRegionMgr":"Perry Murphy","regionZone":"VIC","regionZoneMgr":"Tereaze Hubner"},"openingHoursExceptions":[],"isOpen":true,"openingDate":null,"closingDate":null,"cncEnabled":true,"cncStore":true},{"locationID":26827693,"brandID":3,"storeID":3325,"latitude":-37.886336,"longitude":145.082979,"storeName":"Chadstone","address":"1341 Dandenong Road","suburb":"Chadstone","postcode":"3148","state":"VIC","phone":"(03) 9530 9447","distance":10.497,"fax":"","locationFeatures":null,"openingHours":{"mondayOpen":"10:00","mondayClose":"21:00","tuesdayOpen":"10:00","tuesdayClose":"21:00","wednesdayOpen":"10:00","wednesdayClose":"21:00","thursdayOpen":"10:00","thursdayClose":"22:00","fridayOpen":"10:00","fridayClose":"22:00","saturdayOpen":"09:00","saturdayClose":"21:00","sundayOpen":"10:00","sundayClose":"19:00"},"operationalInfo":{"storeManager":"SABLE-ANNE RUSSELL","areaRegion":"V203","areaRegionMgr":"Myles Brown (caretaking)","regionZone":"VIC","regionZoneMgr":"Tereaze Hubner"},"openingHoursExceptions":[],"isOpen":true,"openingDate":null,"closingDate":null,"cncEnabled":true,"cncStore":true},{"locationID":26828143,"brandID":3,"storeID":3855,"latitude":-37.766044,"longitude":145.091777,"storeName":"Bulleen","address":"83-109 Manningham Road","suburb":"Bulleen","postcode":"3105","state":"VIC","phone":"(03) 9850 8642","distance":10.739,"fax":"","locationFeatures":null,"openingHours":{"mondayOpen":"10:00","mondayClose":"20:00","tuesdayOpen":"10:00","tuesdayClose":"20:00","wednesdayOpen":"10:00","wednesdayClose":"20:00","thursdayOpen":"10:00","thursdayClose":"21:00","fridayOpen":"10:00","fridayClose":"21:00","saturdayOpen":"09:00","saturdayClose":"21:00","sundayOpen":"10:00","sundayClose":"20:00"},"operationalInfo":{"storeManager":"STEVEN GRAYCON","areaRegion":"V205","areaRegionMgr":"Lee Weise","regionZone":"VIC","regionZoneMgr":"Tereaze Hubner"},"openingHoursExceptions":[],"isOpen":true,"openingDate":null,"closingDate":null,"cncEnabled":true,"cncStore":true},{"locationID":26827678,"brandID":3,"storeID":2905,"latitude":-37.731854,"longitude":144.949933,"storeName":"Coburg North","address":"180 Gaffney Street","suburb":"Coburg North","postcode":"3058","state":"VIC","phone":"(03) 8371 9380","distance":10.8,"fax":"","locationFeatures":null,"openingHours":{"mondayOpen":"09:00","mondayClose":"22:00","tuesdayOpen":"09:00","tuesdayClose":"22:00","wednesdayOpen":"09:00","wednesdayClose":"22:00","thursdayOpen":"09:00","thursdayClose":"22:00","fridayOpen":"09:00","fridayClose":"23:00","saturdayOpen":"09:00","saturdayClose":"22:00","sundayOpen":"10:00","sundayClose":"21:00"},"operationalInfo":{"storeManager":"ETHAN SCHOLZ","areaRegion":"V101","areaRegionMgr":"Brenton Fitzsimons","regionZone":"VIC","regionZoneMgr":"Tereaze Hubner"},"openingHoursExceptions":[],"isOpen":true,"openingDate":null,"closingDate":null,"cncEnabled":true,"cncStore":true},{"locationID":26827756,"brandID":3,"storeID":3863,"latitude":-37.818649,"longitude":145.120365,"storeName":"Box Hill","address":"1 Main Street","suburb":"Box Hill","postcode":"3128","state":"VIC","phone":"(03) 9890 8428","distance":11.062,"fax":"","locationFeatures":null,"openingHours":{"mondayOpen":"10:00","mondayClose":"20:00","tuesdayOpen":"10:00","tuesdayClose":"20:00","wednesdayOpen":"10:00","wednesdayClose":"20:00","thursdayOpen":"10:00","thursdayClose":"21:00","fridayOpen":"10:00","fridayClose":"21:00","saturdayOpen":"09:00","saturdayClose":"21:00","sundayOpen":"10:00","sundayClose":"19:00"},"operationalInfo":{"storeManager":"STEVE REWSE-BONGERS","areaRegion":"V205","areaRegionMgr":"Lee Weise","regionZone":"VIC","regionZoneMgr":"Tereaze Hubner"},"openingHoursExceptions":[],"isOpen":true,"openingDate":null,"closingDate":null,"cncEnabled":true,"cncStore":true},{"locationID":26827799,"brandID":3,"storeID":2968,"latitude":-37.725279,"longitude":145.02848,"storeName":"Kingsbury","address":"850 Plenty Road","suburb":"Reservoir","postcode":"3073","state":"VIC","phone":"(03) 9466 0380","distance":11.413,"fax":"","locationFeatures":null,"openingHours":{"mondayOpen":"10:00","mondayClose":"21:00","tuesdayOpen":"10:00","tuesdayClose":"21:00","wednesdayOpen":"10:00","wednesdayClose":"21:00","thursdayOpen":"09:00","thursdayClose":"21:00","fridayOpen":"09:00","fridayClose":"22:00","saturdayOpen":"09:00","saturdayClose":"22:00","sundayOpen":"10:00","sundayClose":"19:00"},"operationalInfo":{"storeManager":"JACK IRONS","areaRegion":"V104","areaRegionMgr":"Perry Murphy","regionZone":"VIC","regionZoneMgr":"Tereaze Hubner"},"openingHoursExceptions":[],"isOpen":true,"openingDate":null,"closingDate":null,"cncEnabled":true,"cncStore":true},{"locationID":26827729,"brandID":3,"storeID":3750,"latitude":-37.900872,"longitude":145.090238,"storeName":"Oakleigh","address":"Station Street","suburb":"Oakleigh","postcode":"3166","state":"VIC","phone":"(03) 9568 1444","distance":12.058,"fax":"","locationFeatures":null,"openingHours":{"mondayOpen":"10:00","mondayClose":"21:00","tuesdayOpen":"10:00","tuesdayClose":"21:00","wednesdayOpen":"10:00","wednesdayClose":"21:00","thursdayOpen":"09:00","thursdayClose":"21:00","fridayOpen":"09:00","fridayClose":"21:00","saturdayOpen":"09:00","saturdayClose":"21:00","sundayOpen":"10:00","sundayClose":"19:00"},"operationalInfo":{"storeManager":"PRAVEEN BASAVARAJA GOWDA","areaRegion":"V203","areaRegionMgr":"Myles Brown (caretaking)","regionZone":"VIC","regionZoneMgr":"Tereaze Hubner"},"openingHoursExceptions":[],"isOpen":true,"openingDate":null,"closingDate":null,"cncEnabled":true,"cncStore":true},{"locationID":26827504,"brandID":3,"storeID":2473,"latitude":-37.7148,"longitude":145.007387,"storeName":"Reservoir","address":"321 Spring St","suburb":"Reservoir","postcode":"3073","state":"VIC","phone":"(03) 9084 9232","distance":12.2,"fax":"","locationFeatures":null,"openingHours":{"mondayOpen":"10:00","mondayClose":"21:00","tuesdayOpen":"10:00","tuesdayClose":"21:00","wednesdayOpen":"10:00","wednesdayClose":"21:00","thursdayOpen":"09:00","thursdayClose":"21:00","fridayOpen":"09:00","fridayClose":"22:00","saturdayOpen":"09:00","saturdayClose":"22:00","sundayOpen":"10:00","sundayClose":"19:00"},"operationalInfo":{"storeManager":"PETER CARDAMONE","areaRegion":"V104","areaRegionMgr":"Perry Murphy","regionZone":"VIC","regionZoneMgr":"Tereaze Hubner"},"openingHoursExceptions":[],"isOpen":true,"openingDate":null,"closingDate":null,"cncEnabled":true,"cncStore":true},{"locationID":26827688,"brandID":3,"storeID":2937,"latitude":-37.828295,"longitude":144.847553,"storeName":"Altona Gate","address":"124 Millers Rd","suburb":"Altona Gate","postcode":"3025","state":"VIC","phone":"(03) 9314 1224","distance":12.232,"fax":"","locationFeatures":null,"openingHours":{"mondayOpen":"09:00","mondayClose":"19:00","tuesdayOpen":"09:00","tuesdayClose":"19:00","wednesdayOpen":"09:00","wednesdayClose":"19:00","thursdayOpen":"09:00","thursdayClose":"21:00","fridayOpen":"09:00","fridayClose":"21:00","saturdayOpen":"09:00","saturdayClose":"21:00","sundayOpen":"10:00","sundayClose":"19:00"},"operationalInfo":{"storeManager":"TRIXIE RICHARDS","areaRegion":"V102","areaRegionMgr":"Shane Mahoney","regionZone":"VIC","regionZoneMgr":"Tereaze Hubner"},"openingHoursExceptions":[],"isOpen":true,"openingDate":null,"closingDate":null,"cncEnabled":false,"cncStore":false},{"locationID":26828062,"brandID":3,"storeID":3045,"latitude":-37.785058,"longitude":145.126433,"storeName":"Doncaster","address":"Corner Doncaster Road And Williamsons Road","suburb":"Doncaster","postcode":"3108","state":"VIC","phone":"(03) 9856 1780","distance":12.34,"fax":"","locationFeatures":null,"openingHours":{"mondayOpen":"09:00","mondayClose":"19:00","tuesdayOpen":"09:00","tuesdayClose":"19:00","wednesdayOpen":"09:00","wednesdayClose":"19:00","thursdayOpen":"09:00","thursdayClose":"21:00","fridayOpen":"09:00","fridayClose":"21:00","saturdayOpen":"09:00","saturdayClose":"21:00","sundayOpen":"10:00","sundayClose":"19:00"},"operationalInfo":{"storeManager":"ANTUN RADMANIC","areaRegion":"V205","areaRegionMgr":"Lee Weise","regionZone":"VIC","regionZoneMgr":"Tereaze Hubner"},"openingHoursExceptions":[],"isOpen":true,"openingDate":null,"closingDate":null,"cncEnabled":true,"cncStore":true},{"locationID":26827850,"brandID":3,"storeID":3784,"latitude":-37.767347,"longitude":144.86351,"storeName":"Avondale Heights","address":"65 Military Road","suburb":"Avondale Heights","postcode":"3034","state":"VIC","phone":"(03) 9318 7976","distance":12.543,"fax":"","locationFeatures":null,"openingHours":{"mondayOpen":"09:00","mondayClose":"21:00","tuesdayOpen":"09:00","tuesdayClose":"21:00","wednesdayOpen":"09:00","wednesdayClose":"22:00","thursdayOpen":"09:00","thursdayClose":"22:00","fridayOpen":"09:00","fridayClose":"22:00","saturdayOpen":"09:00","saturdayClose":"22:00","sundayOpen":"10:00","sundayClose":"21:00"},"operationalInfo":{"storeManager":"RICKY ADDLEY","areaRegion":"V103","areaRegionMgr":"Matthew Maguire (Secondment)","regionZone":"VIC","regionZoneMgr":"Tereaze Hubner"},"openingHoursExceptions":[],"isOpen":true,"openingDate":null,"closingDate":null,"cncEnabled":true,"cncStore":true},{"locationID":26827555,"brandID":3,"storeID":2477,"latitude":-37.778092,"longitude":144.85145,"storeName":"Braybrook","address":"330 Ballarat Road","suburb":"Braybrook","postcode":"3019","state":"VIC","phone":"(03) 9136 0380","distance":12.929,"fax":"","locationFeatures":null,"openingHours":{"mondayOpen":"09:00","mondayClose":"21:00","tuesdayOpen":"09:00","tuesdayClose":"21:00","wednesdayOpen":"09:00","wednesdayClose":"21:00","thursdayOpen":"09:00","thursdayClose":"21:00","fridayOpen":"09:00","fridayClose":"21:00","saturdayOpen":"09:00","saturdayClose":"21:00","sundayOpen":"10:00","sundayClose":"19:00"},"operationalInfo":{"storeManager":"ALANA MAYBUS","areaRegion":"V103","areaRegionMgr":"Matthew Maguire (Secondment)","regionZone":"VIC","regionZoneMgr":"Tereaze Hubner"},"openingHoursExceptions":[],"isOpen":true,"openingDate":null,"closingDate":null,"cncEnabled":true,"cncStore":true},{"locationID":26828075,"brandID":3,"storeID":3086,"latitude":-37.727258,"longitude":144.895751,"storeName":"Essendon Fields","address":"30 English Street","suburb":"Strathmore","postcode":"3041","state":"VIC","phone":"(03) 9379 7243","distance":13.452,"fax":"","locationFeatures":null,"openingHours":{"mondayOpen":"09:00","mondayClose":"19:00","tuesdayOpen":"09:00","tuesdayClose":"19:00","wednesdayOpen":"09:00","wednesdayClose":"19:00","thursdayOpen":"09:00","thursdayClose":"19:00","fridayOpen":"09:00","fridayClose":"20:00","saturdayOpen":"09:00","saturdayClose":"20:00","sundayOpen":"10:00","sundayClose":"19:00"},"operationalInfo":{"storeManager":"CHRIS LUNN","areaRegion":"V103","areaRegionMgr":"Matthew Maguire (Secondment)","regionZone":"VIC","regionZoneMgr":"Tereaze Hubner"},"openingHoursExceptions":[],"isOpen":true,"openingDate":null,"closingDate":null,"cncEnabled":true,"cncStore":true},{"locationID":26827723,"brandID":3,"storeID":3724,"latitude":-37.945219,"longitude":145.022133,"storeName":"Hampton","address":"361-363 Bluff Road","suburb":"Hampton East","postcode":"3188","state":"VIC","phone":"(03) 9075 1312","distance":13.767,"fax":"","locationFeatures":null,"openingHours":{"mondayOpen":"09:00","mondayClose":"22:00","tuesdayOpen":"09:00","tuesdayClose":"22:00","wednesdayOpen":"09:00","wednesdayClose":"22:00","thursdayOpen":"09:00","thursdayClose":"22:00","fridayOpen":"09:00","fridayClose":"22:00","saturdayOpen":"09:00","saturdayClose":"22:00","sundayOpen":"10:00","sundayClose":"21:00"},"operationalInfo":{"storeManager":"TRAVIS JACKWAY","areaRegion":"V203","areaRegionMgr":"Myles Brown (caretaking)","regionZone":"VIC","regionZoneMgr":"Tereaze Hubner"},"openingHoursExceptions":[],"isOpen":true,"openingDate":null,"closingDate":null,"cncEnabled":true,"cncStore":true},{"locationID":26827783,"brandID":3,"storeID":3945,"latitude":-37.948968,"longitude":145.003441,"storeName":"Sandringham","address":"7 Waltham Street","suburb":"Sandringham","postcode":"3191","state":"VIC","phone":"(03) 9598 9300","distance":13.964,"fax":"","locationFeatures":null,"openingHours":{"mondayOpen":"10:00","mondayClose":"21:00","tuesdayOpen":"10:00","tuesdayClose":"21:00","wednesdayOpen":"09:00","wednesdayClose":"21:00","thursdayOpen":"09:00","thursdayClose":"21:00","fridayOpen":"09:00","fridayClose":"22:00","saturdayOpen":"09:00","saturdayClose":"22:00","sundayOpen":"10:00","sundayClose":"20:00"},"operationalInfo":{"storeManager":"GEORGE LOECHEL","areaRegion":"V203","areaRegionMgr":"Myles Brown (caretaking)","regionZone":"VIC","regionZoneMgr":"Tereaze Hubner"},"openingHoursExceptions":[],"isOpen":true,"openingDate":null,"closingDate":null,"cncEnabled":true,"cncStore":true},{"locationID":26827581,"brandID":3,"storeID":3291,"latitude":-37.853313,"longitude":145.150319,"storeName":"Burwood East","address":"Corner Burwood Highway Road And Blackburn Road","suburb":"Burwood East","postcode":"3151","state":"VIC","phone":"(03) 9847 8380","distance":13.994,"fax":"","locationFeatures":null,"openingHours":{"mondayOpen":"09:00","mondayClose":"21:00","tuesdayOpen":"09:00","tuesdayClose":"21:00","wednesdayOpen":"09:00","wednesdayClose":"21:00","thursdayOpen":"09:00","thursdayClose":"21:00","fridayOpen":"09:00","fridayClose":"22:00","saturdayOpen":"09:00","saturdayClose":"22:00","sundayOpen":"10:00","sundayClose":"22:00"},"operationalInfo":{"storeManager":"KAITLYN HALDEN","areaRegion":"V205","areaRegionMgr":"Lee Weise","regionZone":"VIC","regionZoneMgr":"Tereaze Hubner"},"openingHoursExceptions":[],"isOpen":true,"openingDate":null,"closingDate":null,"cncEnabled":true,"cncStore":true},{"locationID":26828002,"brandID":3,"storeID":3807,"latitude":-37.705849,"longitude":144.91689,"storeName":"Glenroy","address":"250 Glenroy Road","suburb":"Glenroy","postcode":"3046","state":"VIC","phone":"(03) 9300 3864","distance":14.551,"fax":"","locationFeatures":null,"openingHours":{"mondayOpen":"09:00","mondayClose":"22:00","tuesdayOpen":"09:00","tuesdayClose":"22:00","wednesdayOpen":"09:00","wednesdayClose":"22:00","thursdayOpen":"09:00","thursdayClose":"22:00","fridayOpen":"09:00","fridayClose":"23:00","saturdayOpen":"09:00","saturdayClose":"23:00","sundayOpen":"10:00","sundayClose":"22:00"},"operationalInfo":{"storeManager":"BRYANT BEST","areaRegion":"V103","areaRegionMgr":"Matthew Maguire (Secondment)","regionZone":"VIC","regionZoneMgr":"Tereaze Hubner"},"openingHoursExceptions":[],"isOpen":true,"openingDate":null,"closingDate":null,"cncEnabled":true,"cncStore":true},{"locationID":26828125,"brandID":3,"storeID":3830,"latitude":-37.868989,"longitude":144.830023,"storeName":"Altona","address":"39-49 Pier Street","suburb":"Altona","postcode":"3018","state":"VIC","phone":"(03) 9315 9083","distance":14.61,"fax":"","locationFeatures":null,"openingHours":{"mondayOpen":"09:00","mondayClose":"21:00","tuesdayOpen":"09:00","tuesdayClose":"21:00","wednesdayOpen":"09:00","wednesdayClose":"21:00","thursdayOpen":"09:00","thursdayClose":"21:00","fridayOpen":"09:00","fridayClose":"21:00","saturdayOpen":"09:00","saturdayClose":"21:00","sundayOpen":"10:00","sundayClose":"21:00"},"operationalInfo":{"storeManager":"DIDIER ABEN","areaRegion":"V102","areaRegionMgr":"Shane Mahoney","regionZone":"VIC","regionZoneMgr":"Tereaze Hubner"},"openingHoursExceptions":[],"isOpen":true,"openingDate":null,"closingDate":null,"cncEnabled":true,"cncStore":true},{"locationID":26827622,"brandID":3,"storeID":5704,"latitude":-37.71118,"longitude":145.082529,"storeName":"Watsonia","address":"35 Watsonia Road","suburb":"Watsonia","postcode":"3087","state":"VIC","phone":"(03) 9435 1676","distance":14.762,"fax":"","locationFeatures":null,"openingHours":{"mondayOpen":"09:00","mondayClose":"21:00","tuesdayOpen":"09:00","tuesdayClose":"21:00","wednesdayOpen":"09:00","wednesdayClose":"21:00","thursdayOpen":"09:00","thursdayClose":"22:00","fridayOpen":"09:00","fridayClose":"22:00","saturdayOpen":"09:00","saturdayClose":"22:00","sundayOpen":"10:00","sundayClose":"21:00"},"operationalInfo":{"storeManager":"JOE HARDY","areaRegion":"V104","areaRegionMgr":"Perry Murphy","regionZone":"VIC","regionZoneMgr":"Tereaze Hubner"},"openingHoursExceptions":[],"isOpen":true,"openingDate":null,"closingDate":null,"cncEnabled":true,"cncStore":true},{"locationID":26828010,"brandID":3,"storeID":3820,"latitude":-37.835098,"longitude":145.165417,"storeName":"Forest Hill","address":"Corner Mahoneys Road And Canterbury Road","suburb":"Forest Hill","postcode":"3131","state":"VIC","phone":"(03) 9894 2985","distance":14.944,"fax":"","locationFeatures":null,"openingHours":{"mondayOpen":"09:00","mondayClose":"19:00","tuesdayOpen":"09:00","tuesdayClose":"19:00","wednesdayOpen":"09:00","wednesdayClose":"19:00","thursdayOpen":"09:00","thursdayClose":"21:00","fridayOpen":"09:00","fridayClose":"21:00","saturdayOpen":"09:00","saturdayClose":"20:00","sundayOpen":"10:00","sundayClose":"19:00"},"operationalInfo":{"storeManager":"CRAIG STEWART","areaRegion":"V205","areaRegionMgr":"Lee Weise","regionZone":"VIC","regionZoneMgr":"Tereaze Hubner"},"openingHoursExceptions":[],"isOpen":true,"openingDate":null,"closingDate":null,"cncEnabled":true,"cncStore":true},{"locationID":26828126,"brandID":3,"storeID":3832,"latitude":-37.714355,"longitude":144.884214,"storeName":"Airport West","address":"Dromana Avenue","suburb":"Airport West","postcode":"3042","state":"VIC","phone":"(03) 8318 4780","distance":15.191,"fax":"","locationFeatures":null,"openingHours":{"mondayOpen":"09:00","mondayClose":"20:00","tuesdayOpen":"09:00","tuesdayClose":"20:00","wednesdayOpen":"09:00","wednesdayClose":"20:00","thursdayOpen":"09:00","thursdayClose":"21:00","fridayOpen":"09:00","fridayClose":"21:00","saturdayOpen":"09:00","saturdayClose":"21:00","sundayOpen":"10:00","sundayClose":"19:00"},"operationalInfo":{"storeManager":"DAVID COBURN","areaRegion":"V103","areaRegionMgr":"Matthew Maguire (Secondment)","regionZone":"VIC","regionZoneMgr":"Tereaze Hubner"},"openingHoursExceptions":[],"isOpen":true,"openingDate":null,"closingDate":null,"cncEnabled":true,"cncStore":true},{"locationID":26827994,"brandID":3,"storeID":3794,"latitude":-37.697166,"longitude":145.057921,"storeName":"Bundoora (coles)","address":"Corner Settlement Road And Plenty Road","suburb":"Bundoora","postcode":"3083","state":"VIC","phone":"(03) 9467 8525","distance":15.197,"fax":"","locationFeatures":null,"openingHours":{"mondayOpen":"10:00","mondayClose":"21:00","tuesdayOpen":"10:00","tuesdayClose":"21:00","wednesdayOpen":"10:00","wednesdayClose":"21:00","thursdayOpen":"10:00","thursdayClose":"21:00","fridayOpen":"09:00","fridayClose":"21:00","saturdayOpen":"09:00","saturdayClose":"21:00","sundayOpen":"10:00","sundayClose":"19:00"},"operationalInfo":{"storeManager":"ARRON MC CORRY","areaRegion":"V104","areaRegionMgr":"Perry Murphy","regionZone":"VIC","regionZoneMgr":"Tereaze Hubner"},"openingHoursExceptions":[],"isOpen":true,"openingDate":null,"closingDate":null,"cncEnabled":true,"cncStore":true},{"locationID":26828138,"brandID":3,"storeID":3850,"latitude":-37.68867,"longitude":144.959858,"storeName":"Campbellfield","address":"Corner Sydney Road And Mahoneys Road","suburb":"Campbellfield","postcode":"3061","state":"VIC","phone":"(03) 9359 6078","distance":15.254,"fax":"","locationFeatures":null,"openingHours":{"mondayOpen":"09:00","mondayClose":"21:00","tuesdayOpen":"09:00","tuesdayClose":"21:00","wednesdayOpen":"09:00","wednesdayClose":"21:00","thursdayOpen":"09:00","thursdayClose":"21:00","fridayOpen":"09:00","fridayClose":"21:00","saturdayOpen":"09:00","saturdayClose":"21:00","sundayOpen":"10:00","sundayClose":"20:00"},"operationalInfo":{"storeManager":"JULIA QUINTON","areaRegion":"V103","areaRegionMgr":"Matthew Maguire (Secondment)","regionZone":"VIC","regionZoneMgr":"Tereaze Hubner"},"openingHoursExceptions":[],"isOpen":true,"openingDate":null,"closingDate":null,"cncEnabled":true,"cncStore":true},{"locationID":26827764,"brandID":3,"storeID":3881,"latitude":-37.925603,"longitude":145.118575,"storeName":"Clayton","address":"2-4 Cooke Street","suburb":"Clayton","postcode":"3168","state":"VIC","phone":"(03) 9562 9225","distance":15.715,"fax":"","locationFeatures":null,"openingHours":{"mondayOpen":"09:00","mondayClose":"21:00","tuesdayOpen":"09:00","tuesdayClose":"21:00","wednesdayOpen":"09:00","wednesdayClose":"21:00","thursdayOpen":"09:00","thursdayClose":"21:00","fridayOpen":"09:00","fridayClose":"21:00","saturdayOpen":"09:00","saturdayClose":"21:00","sundayOpen":"10:00","sundayClose":"20:00"},"operationalInfo":{"storeManager":"","areaRegion":"V203","areaRegionMgr":"Myles Brown (caretaking)","regionZone":"VIC","regionZoneMgr":"Tereaze Hubner"},"openingHoursExceptions":[],"isOpen":true,"openingDate":null,"closingDate":null,"cncEnabled":true,"cncStore":true},{"locationID":26827833,"brandID":3,"storeID":3752,"latitude":-37.958832,"longitude":145.051024,"storeName":"Southland","address":"1156 Nepean Highway","suburb":"Cheltenham","postcode":"3192","state":"VIC","phone":"(03) 9239 6180","distance":15.873,"fax":"","locationFeatures":null,"openingHours":{"mondayOpen":"09:00","mondayClose":"21:00","tuesdayOpen":"09:00","tuesdayClose":"21:00","wednesdayOpen":"09:00","wednesdayClose":"21:00","thursdayOpen":"09:00","thursdayClose":"22:00","fridayOpen":"09:00","fridayClose":"22:00","saturdayOpen":"09:00","saturdayClose":"21:00","sundayOpen":"10:00","sundayClose":"21:00"},"operationalInfo":{"storeManager":"MORGAN CLAYTON","areaRegion":"V203","areaRegionMgr":"Myles Brown (caretaking)","regionZone":"VIC","regionZoneMgr":"Tereaze Hubner"},"openingHoursExceptions":[],"isOpen":true,"openingDate":null,"closingDate":null,"cncEnabled":true,"cncStore":true},{"locationID":26827694,"brandID":3,"storeID":3330,"latitude":-37.875643,"longitude":145.164639,"storeName":"The Glen","address":"235 Springvale Road","suburb":"Glen Waverley","postcode":"3150","state":"VIC","phone":"(03) 7505 3180","distance":15.907,"fax":"","locationFeatures":null,"openingHours":{"mondayOpen":"09:00","mondayClose":"19:00","tuesdayOpen":"09:00","tuesdayClose":"19:00","wednesdayOpen":"09:00","wednesdayClose":"19:00","thursdayOpen":"09:00","thursdayClose":"21:00","fridayOpen":"09:00","fridayClose":"21:00","saturdayOpen":"09:00","saturdayClose":"21:00","sundayOpen":"10:00","sundayClose":"19:00"},"operationalInfo":{"storeManager":"MICHAEL SIMPSON","areaRegion":"V205","areaRegionMgr":"Lee Weise","regionZone":"VIC","regionZoneMgr":"Tereaze Hubner"},"openingHoursExceptions":[],"isOpen":true,"openingDate":null,"closingDate":null,"cncEnabled":true,"cncStore":true},{"locationID":26828011,"brandID":3,"storeID":3821,"latitude":-37.703084,"longitude":145.102515,"storeName":"Greensborough","address":"25 Main Street","suburb":"Greensborough","postcode":"3088","state":"VIC","phone":"(03) 9084 2680","distance":16.457,"fax":"","locationFeatures":null,"openingHours":{"mondayOpen":"09:00","mondayClose":"20:00","tuesdayOpen":"09:00","tuesdayClose":"20:00","wednesdayOpen":"09:00","wednesdayClose":"20:00","thursdayOpen":"09:00","thursdayClose":"21:00","fridayOpen":"09:00","fridayClose":"22:00","saturdayOpen":"09:00","saturdayClose":"20:00","sundayOpen":"10:00","sundayClose":"19:00"},"operationalInfo":{"storeManager":"SARAH UNKLES","areaRegion":"V104","areaRegionMgr":"Perry Murphy","regionZone":"VIC","regionZoneMgr":"Tereaze Hubner"},"openingHoursExceptions":[],"isOpen":true,"openingDate":null,"closingDate":null,"cncEnabled":true,"cncStore":true},{"locationID":26827773,"brandID":3,"storeID":3896,"latitude":-37.7626,"longitude":145.168316,"storeName":"The Pines","address":"Corner Reynolds Road And Blackburn Road","suburb":"Doncaster East","postcode":"3109","state":"VIC","phone":"(03) 8863 2180","distance":16.596,"fax":"","locationFeatures":null,"openingHours":{"mondayOpen":"09:00","mondayClose":"20:00","tuesdayOpen":"09:00","tuesdayClose":"20:00","wednesdayOpen":"09:00","wednesdayClose":"20:00","thursdayOpen":"09:00","thursdayClose":"21:00","fridayOpen":"09:00","fridayClose":"21:00","saturdayOpen":"09:00","saturdayClose":"21:00","sundayOpen":"10:00","sundayClose":"19:00"},"operationalInfo":{"storeManager":"ERIN DUNLOP","areaRegion":"V205","areaRegionMgr":"Lee Weise","regionZone":"VIC","regionZoneMgr":"Tereaze Hubner"},"openingHoursExceptions":[],"isOpen":true,"openingDate":null,"closingDate":null,"cncEnabled":true,"cncStore":true},{"locationID":26828004,"brandID":3,"storeID":3810,"latitude":-37.855398,"longitude":145.182407,"storeName":"Vermont South","address":"495-517 Burwood Road","suburb":"Vermont South","postcode":"3133","state":"VIC","phone":"(03) 8847 4080","distance":16.714,"fax":"","locationFeatures":null,"openingHours":{"mondayOpen":"09:00","mondayClose":"20:00","tuesdayOpen":"09:00","tuesdayClose":"20:00","wednesdayOpen":"09:00","wednesdayClose":"20:00","thursdayOpen":"09:00","thursdayClose":"21:00","fridayOpen":"09:00","fridayClose":"21:00","saturdayOpen":"09:00","saturdayClose":"21:00","sundayOpen":"10:00","sundayClose":"20:00"},"operationalInfo":{"storeManager":"WENDY DANIELS","areaRegion":"V205","areaRegionMgr":"Lee Weise","regionZone":"VIC","regionZoneMgr":"Tereaze Hubner"},"openingHoursExceptions":[],"isOpen":true,"openingDate":null,"closingDate":null,"cncEnabled":true,"cncStore":true},{"locationID":26828000,"brandID":3,"storeID":3804,"latitude":-37.673196,"longitude":145.017344,"storeName":"Lalor","address":"47-71 May Street","suburb":"Lalor","postcode":"3075","state":"VIC","phone":"(03) 9464 0864","distance":16.896,"fax":"","locationFeatures":null,"openingHours":{"mondayOpen":"10:00","mondayClose":"19:00","tuesdayOpen":"10:00","tuesdayClose":"19:00","wednesdayOpen":"10:00","wednesdayClose":"19:00","thursdayOpen":"10:00","thursdayClose":"19:00","fridayOpen":"10:00","fridayClose":"20:00","saturdayOpen":"09:00","saturdayClose":"20:00","sundayOpen":"10:00","sundayClose":"19:00"},"operationalInfo":{"storeManager":"NICOLE CARNOVALE","areaRegion":"V104","areaRegionMgr":"Perry Murphy","regionZone":"VIC","regionZoneMgr":"Tereaze Hubner"},"openingHoursExceptions":[],"isOpen":true,"openingDate":null,"closingDate":null,"cncEnabled":true,"cncStore":true},{"locationID":26827782,"brandID":3,"storeID":3923,"latitude":-37.682808,"longitude":145.07095,"storeName":"Bundoora","address":"224 Plenty Road","suburb":"Bundoora","postcode":"3083","state":"VIC","phone":"(03) 9084 9205","distance":17.1,"fax":"","locationFeatures":null,"openingHours":{"mondayOpen":"10:00","mondayClose":"19:00","tuesdayOpen":"10:00","tuesdayClose":"19:00","wednesdayOpen":"10:00","wednesdayClose":"19:00","thursdayOpen":"10:00","thursdayClose":"21:00","fridayOpen":"09:00","fridayClose":"21:00","saturdayOpen":"09:00","saturdayClose":"21:00","sundayOpen":"10:00","sundayClose":"19:00"},"operationalInfo":{"storeManager":"HELEN HUYBERS","areaRegion":"V104","areaRegionMgr":"Perry Murphy","regionZone":"VIC","regionZoneMgr":"Tereaze Hubner"},"openingHoursExceptions":[],"isOpen":true,"openingDate":null,"closingDate":null,"cncEnabled":true,"cncStore":true},{"locationID":26827758,"brandID":3,"storeID":3869,"latitude":-37.679567,"longitude":144.920121,"storeName":"Broadmeadows","address":"1099-1169 Pascoe Vale Road","suburb":"Broadmeadows","postcode":"3047","state":"VIC","phone":"(03) 9309 7384","distance":17.133,"fax":"","locationFeatures":null,"openingHours":{"mondayOpen":"10:00","mondayClose":"18:00","tuesdayOpen":"10:00","tuesdayClose":"18:00","wednesdayOpen":"10:00","wednesdayClose":"18:00","thursdayOpen":"09:00","thursdayClose":"21:00","fridayOpen":"09:00","fridayClose":"21:00","saturdayOpen":"09:00","saturdayClose":"19:00","sundayOpen":"11:00","sundayClose":"18:00"},"operationalInfo":{"storeManager":"WILLIAM WILSON","areaRegion":"V103","areaRegionMgr":"Matthew Maguire (Secondment)","regionZone":"VIC","regionZoneMgr":"Tereaze Hubner"},"openingHoursExceptions":[],"isOpen":true,"openingDate":null,"closingDate":null,"cncEnabled":true,"cncStore":true},{"locationID":26828129,"brandID":3,"storeID":3840,"latitude":-37.904751,"longitude":145.162538,"storeName":"Brandon Park","address":"Corner Springvale Road And Ferntree Gully Road","suburb":"Mulgrave","postcode":"3170","state":"VIC","phone":"(03) 9084 9220","distance":17.192,"fax":"","locationFeatures":null,"openingHours":{"mondayOpen":"09:00","mondayClose":"21:00","tuesdayOpen":"09:00","tuesdayClose":"21:00","wednesdayOpen":"09:00","wednesdayClose":"21:00","thursdayOpen":"09:00","thursdayClose":"21:00","fridayOpen":"09:00","fridayClose":"22:00","saturdayOpen":"09:00","saturdayClose":"22:00","sundayOpen":"10:00","sundayClose":"21:00"},"operationalInfo":{"storeManager":"ANDREW KIDGELL","areaRegion":"V205","areaRegionMgr":"Lee Weise","regionZone":"VIC","regionZoneMgr":"Tereaze Hubner"},"openingHoursExceptions":[],"isOpen":true,"openingDate":null,"closingDate":null,"cncEnabled":true,"cncStore":true},{"locationID":26828122,"brandID":3,"storeID":3826,"latitude":-37.815334,"longitude":145.192804,"storeName":"Mitcham","address":"Corner Brittania Street And Victoria Avenue","suburb":"Mitcham","postcode":"3132","state":"VIC","phone":"(03) 9873 1823","distance":17.252,"fax":"","locationFeatures":null,"openingHours":{"mondayOpen":"09:00","mondayClose":"21:00","tuesdayOpen":"09:00","tuesdayClose":"21:00","wednesdayOpen":"09:00","wednesdayClose":"21:00","thursdayOpen":"09:00","thursdayClose":"21:00","fridayOpen":"09:00","fridayClose":"22:00","saturdayOpen":"09:00","saturdayClose":"22:00","sundayOpen":"10:00","sundayClose":"21:00"},"operationalInfo":{"storeManager":"STEVEN CAREY","areaRegion":"V205","areaRegionMgr":"Lee Weise","regionZone":"VIC","regionZoneMgr":"Tereaze Hubner"},"openingHoursExceptions":[],"isOpen":true,"openingDate":null,"closingDate":null,"cncEnabled":true,"cncStore":true},{"locationID":26827806,"brandID":3,"storeID":2976,"latitude":-37.714949,"longitude":145.148706,"storeName":"Eltham Village","address":"906 Main Road","suburb":"Eltham","postcode":"3095","state":"VIC","phone":"(03) 9439 9738","distance":18.104,"fax":"","locationFeatures":null,"openingHours":{"mondayOpen":"09:00","mondayClose":"21:00","tuesdayOpen":"09:00","tuesdayClose":"21:00","wednesdayOpen":"09:00","wednesdayClose":"21:00","thursdayOpen":"09:00","thursdayClose":"21:00","fridayOpen":"09:00","fridayClose":"21:00","saturdayOpen":"09:00","saturdayClose":"21:00","sundayOpen":"10:00","sundayClose":"20:00"},"operationalInfo":{"storeManager":"DEAN SOPCIC","areaRegion":"V104","areaRegionMgr":"Perry Murphy","regionZone":"VIC","regionZoneMgr":"Tereaze Hubner"},"openingHoursExceptions":[],"isOpen":true,"openingDate":null,"closingDate":null,"cncEnabled":true,"cncStore":true},{"locationID":26827814,"brandID":3,"storeID":3366,"latitude":-37.712235,"longitude":145.148646,"storeName":"Eltham","address":"981 Main Road","suburb":"Eltham","postcode":"3095","state":"VIC","phone":"(03) 9431 2742","distance":18.303,"fax":"","locationFeatures":null,"openingHours":{"mondayOpen":"11:00","mondayClose":"21:00","tuesdayOpen":"11:00","tuesdayClose":"21:00","wednesdayOpen":"11:00","wednesdayClose":"21:00","thursdayOpen":"11:00","thursdayClose":"21:00","fridayOpen":"11:00","fridayClose":"22:00","saturdayOpen":"10:00","saturdayClose":"22:00","sundayOpen":"11:00","sundayClose":"20:00"},"operationalInfo":{"storeManager":"JEROME MAITLAND","areaRegion":"V104","areaRegionMgr":"Perry Murphy","regionZone":"VIC","regionZoneMgr":"Tereaze Hubner"},"openingHoursExceptions":[],"isOpen":true,"openingDate":null,"closingDate":null,"cncEnabled":true,"cncStore":true},{"locationID":26827781,"brandID":3,"storeID":3922,"latitude":-37.758169,"longitude":144.79069,"storeName":"Cairnlea","address":"100 Furlong Road","suburb":"Cairnlea","postcode":"3023","state":"VIC","phone":"(03) 9084 9233","distance":18.565,"fax":"","locationFeatures":null,"openingHours":{"mondayOpen":"10:00","mondayClose":"19:00","tuesdayOpen":"10:00","tuesdayClose":"19:00","wednesdayOpen":"10:00","wednesdayClose":"19:00","thursdayOpen":"09:00","thursdayClose":"20:00","fridayOpen":"09:00","fridayClose":"20:00","saturdayOpen":"09:00","saturdayClose":"21:00","sundayOpen":"10:00","sundayClose":"19:00"},"operationalInfo":{"storeManager":"ROHINI MAHAJAN","areaRegion":"V103","areaRegionMgr":"Matthew Maguire (Secondment)","regionZone":"VIC","regionZoneMgr":"Tereaze Hubner"},"openingHoursExceptions":[],"isOpen":true,"openingDate":null,"closingDate":null,"cncEnabled":true,"cncStore":true},{"locationID":26828137,"brandID":3,"storeID":3849,"latitude":-37.727462,"longitude":144.807178,"storeName":"Keilor Downs","address":"Taylors Road","suburb":"Keilor Downs","postcode":"3038","state":"VIC","phone":"(03) 9367 9677","distance":18.976,"fax":"","locationFeatures":null,"openingHours":{"mondayOpen":"09:00","mondayClose":"21:00","tuesdayOpen":"09:00","tuesdayClose":"21:00","wednesdayOpen":"09:00","wednesdayClose":"21:00","thursdayOpen":"09:00","thursdayClose":"21:00","fridayOpen":"09:00","fridayClose":"22:00","saturdayOpen":"09:00","saturdayClose":"22:00","sundayOpen":"10:00","sundayClose":"19:00"},"operationalInfo":{"storeManager":"NEETU MAHAJAN","areaRegion":"V103","areaRegionMgr":"Matthew Maguire (Secondment)","regionZone":"VIC","regionZoneMgr":"Tereaze Hubner"},"openingHoursExceptions":[],"isOpen":true,"openingDate":null,"closingDate":null,"cncEnabled":true,"cncStore":true},{"locationID":26827727,"brandID":3,"storeID":3747,"latitude":-37.873305,"longitude":144.776176,"storeName":"Laverton","address":"1 Central Avenue","suburb":"Altona Meadows","postcode":"3028","state":"VIC","phone":"(03) 9360 7077","distance":19.121,"fax":"","locationFeatures":null,"openingHours":{"mondayOpen":"09:00","mondayClose":"22:00","tuesdayOpen":"09:00","tuesdayClose":"22:00","wednesdayOpen":"09:00","wednesdayClose":"22:00","thursdayOpen":"09:00","thursdayClose":"22:00","fridayOpen":"09:00","fridayClose":"23:00","saturdayOpen":"09:00","saturdayClose":"23:00","sundayOpen":"10:00","sundayClose":"22:00"},"operationalInfo":{"storeManager":"GREIG DONALD","areaRegion":"V102","areaRegionMgr":"Shane Mahoney","regionZone":"VIC","regionZoneMgr":"Tereaze Hubner"},"openingHoursExceptions":[],"isOpen":true,"openingDate":null,"closingDate":null,"cncEnabled":true,"cncStore":true},{"locationID":26828079,"brandID":3,"storeID":3093,"latitude":-37.783502,"longitude":144.772344,"storeName":"Derrimut Village","address":"10-20 Mt Derrimut Road","suburb":"Derrimut","postcode":"3030","state":"VIC","phone":"(03) 8361 3480","distance":19.167,"fax":"","locationFeatures":null,"openingHours":{"mondayOpen":"10:00","mondayClose":"21:00","tuesdayOpen":"10:00","tuesdayClose":"21:00","wednesdayOpen":"09:00","wednesdayClose":"21:00","thursdayOpen":"09:00","thursdayClose":"21:00","fridayOpen":"09:00","fridayClose":"22:00","saturdayOpen":"09:00","saturdayClose":"22:00","sundayOpen":"10:00","sundayClose":"20:00"},"operationalInfo":{"storeManager":"FRANK BERKA","areaRegion":"V103","areaRegionMgr":"Matthew Maguire (Secondment)","regionZone":"VIC","regionZoneMgr":"Tereaze Hubner"},"openingHoursExceptions":[],"isOpen":true,"openingDate":null,"closingDate":null,"cncEnabled":true,"cncStore":true},{"locationID":26827839,"brandID":3,"storeID":3764,"latitude":-37.652652,"longitude":145.020944,"storeName":"Epping","address":"High Street","suburb":"Epping","postcode":"3076","state":"VIC","phone":"(03) 9084 9236","distance":19.201,"fax":"","locationFeatures":null,"openingHours":{"mondayOpen":"10:00","mondayClose":"19:00","tuesdayOpen":"10:00","tuesdayClose":"19:00","wednesdayOpen":"10:00","wednesdayClose":"19:00","thursdayOpen":"10:00","thursdayClose":"21:00","fridayOpen":"09:00","fridayClose":"21:00","saturdayOpen":"09:00","saturdayClose":"21:00","sundayOpen":"10:00","sundayClose":"19:00"},"operationalInfo":{"storeManager":"DEAN GAZELLE","areaRegion":"V104","areaRegionMgr":"Perry Murphy","regionZone":"VIC","regionZoneMgr":"Tereaze Hubner"},"openingHoursExceptions":[],"isOpen":true,"openingDate":null,"closingDate":null,"cncEnabled":true,"cncStore":true},{"locationID":26828128,"brandID":3,"storeID":3837,"latitude":-37.815517,"longitude":145.221689,"storeName":"Ringwood","address":"Corner Maroondah Highway And New Street","suburb":"Ringwood","postcode":"3134","state":"VIC","phone":"(03) 7004 3880","distance":19.712,"fax":"","locationFeatures":null,"openingHours":{"mondayOpen":"09:00","mondayClose":"21:00","tuesdayOpen":"09:00","tuesdayClose":"21:00","wednesdayOpen":"09:00","wednesdayClose":"21:00","thursdayOpen":"09:00","thursdayClose":"21:00","fridayOpen":"09:00","fridayClose":"21:00","saturdayOpen":"09:00","saturdayClose":"21:00","sundayOpen":"10:00","sundayClose":"21:00"},"operationalInfo":{"storeManager":"AMY MOTUFOAKI","areaRegion":"V205","areaRegionMgr":"Lee Weise","regionZone":"VIC","regionZoneMgr":"Tereaze Hubner"},"openingHoursExceptions":[],"isOpen":true,"openingDate":null,"closingDate":null,"cncEnabled":true,"cncStore":true}]